City,Longitude,Latitude,Max Temperature (°C),Humidity,Cloudiness,Wind Speed,Country,Weather,Date,Sunrise,Sunset
Arraial do Cabo,-42.0278,-22.9661,26.98,69,20,5.14,BR,Clouds,1657386959,1657358958,1657397816
Jamestown,-79.2353,42.097,25.85,46,0,4.63,US,Clear,1657386959,1657360174,1657414462
Gazojak,61.4036,41.1875,29.26,15,0,5.08,TM,Clear,1657386959,1657326583,1657380539
Swarzędz,17.085,52.4129,21.61,67,20,5.66,PL,Clouds,1657386960,1657334419,1657393978
Rapid Valley,-103.1463,44.0625,37.24,56,0,8.23,US,Clear,1657386960,1657365507,1657420607
Hobart,147.3294,-42.8794,7.92,89,100,2.57,AU,Clouds,1657386960,1657402800,1657435891
Hermanus,19.2345,-34.4187,14.33,75,23,4.69,ZA,Clouds,1657386960,1657345742,1657381623
Serowe,26.7167,-22.3833,14.19,39,0,2.81,BW,Clear,1657386961,1657342393,1657381381
Hobyo,48.5268,5.3505,24.65,75,100,13.21,SO,Clouds,1657386961,1657334305,1657378999
Erdenet,104.0833,49.0333,10.62,93,99,1.35,MN,Clouds,1657386961,1657400994,1657458457
Moissac,1.0945,44.1024,31.93,16,0,3.66,FR,Clear,1657386961,1657340468,1657395606
Mataura,168.8643,-46.1927,1.93,92,23,0.95,NZ,Clouds,1657386961,1657398310,1657430044
Rikitea,-134.9692,-23.1203,23.69,77,100,7.08,PF,Rain,1657386962,1657381280,1657420110
Chumikan,135.315,54.7183,11.39,94,100,2.76,RU,Clouds,1657386962,1657391670,1657452789
Tucuruí,-49.6725,-3.7661,32.7,44,31,2.15,BR,Clouds,1657386767,1657358778,1657401666
Kodino,39.6447,63.7198,18.99,58,56,2.09,RU,Clouds,1657386962,1657322698,1657394870
Hualmay,-77.6139,-11.0964,19.37,70,64,4.81,PE,Clouds,1657386962,1657366218,1657407639
Richards Bay,32.0377,-28.783,20.4,71,0,6.13,ZA,Clear,1657386962,1657341895,1657379325
Punta Arenas,-70.9167,-53.15,1.06,60,20,5.14,CL,Clouds,1657386963,1657371277,1657399366
Sola,167.55,-13.8833,26.34,81,38,7.66,VU,Clouds,1657386963,1657394066,1657434919
Kawalu,108.2082,-7.3817,20.7,92,36,0.61,ID,Clouds,1657386963,1657407648,1657449823
Atuona,-139.0333,-9.8,24.97,81,30,8.65,PF,Rain,1657386963,1657380828,1657422514
Tucumcari,-103.725,35.1717,32.75,31,0,2.57,US,Clear,1657386964,1657367282,1657419110
Dikson,80.5464,73.5069,0.66,89,33,3.32,RU,Clouds,1657386964,0,0
Puerto Ayora,-90.3518,-0.7393,24.98,93,89,1.79,EC,Clouds,1657386964,1657368244,1657411729
Mossamedes,12.1522,-15.1961,18.35,81,13,5.3,AO,Clouds,1657386964,1657345098,1657385667
Gimli,-96.9907,50.6336,22.53,76,64,5.89,CA,Clouds,1657386964,1657362373,1657420786
Māndleshwar,75.6667,22.1833,27.22,81,100,5.73,IN,Clouds,1657386964,1657325980,1657374295
Katsuura,140.3,35.1333,24.08,92,100,7.27,JP,Clouds,1657386965,1657395133,1657446932
Cabo San Lucas,-109.9124,22.8909,34.61,64,20,5.14,MX,Clouds,1657386965,1657370447,1657418915
Bethel,-73.414,41.3712,28.97,46,0,1.54,US,Clear,1657386965,1657358919,1657412922
Vaini,-175.2,-21.2,23.09,83,20,3.6,TO,Clouds,1657386965,1657477110,1657516410
Airai,125.4092,-8.9266,13.37,92,90,1.6,TL,Clouds,1657386965,1657403674,1657445539
Ubari,12.7805,26.5921,39.2,11,3,3.89,LY,Clear,1657386966,1657340532,1657389932
Alice Town,-79.3,25.7167,29.02,68,54,4.96,BS,Clouds,1657386966,1657362750,1657411917
Hasaki,140.8333,35.7333,23.22,93,100,7.3,JP,Clouds,1657386966,1657394909,1657446900
Poya,165.15,-21.35,23.02,90,3,2.31,NC,Clear,1657386966,1657395448,1657434688
Bluff,168.3333,-46.6,2.11,70,66,1.82,NZ,Clouds,1657386966,1657398527,1657430081
Upernavik,-56.1549,72.7868,4.22,83,3,4.15,GL,Clear,1657386901,0,0
Balkanabat,54.3671,39.5108,31.76,22,0,1.99,TM,Clear,1657386967,1657328587,1657381913
Hambantota,81.1185,6.1241,27.21,74,97,9.06,LK,Clouds,1657386967,1657326404,1657371254
Biak,122.8766,-0.9131,23.64,90,98,2.06,ID,Clouds,1657386967,1657403489,1657446940
Avarua,-159.775,-21.2078,22.03,68,100,3.6,CK,Clouds,1657386967,1657387014,1657426284
Okha,142.9478,53.5739,16.58,86,3,4.11,RU,Clear,1657386967,1657390257,1657450537
Bentong,101.9079,3.5181,24.75,82,100,0.81,MY,Clouds,1657386968,1657408085,1657452410
Albany,-73.9662,42.6001,25.53,47,1,2.81,US,Clear,1657386968,1657358807,1657413299
Chui,-53.4616,-33.6971,16.13,90,93,5.59,UY,Clouds,1657386968,1657363081,1657399182
Sur,59.5289,22.5667,28.59,81,100,3.73,OM,Rain,1657386968,1657329809,1657378213
Mopti,-4.0,14.6667,39.31,21,59,3.81,ML,Clouds,1657386968,1657345952,1657392567
Ponta do Sol,-17.1,32.6667,29.51,45,4,1.27,PT,Clear,1657386969,1657346868,1657397940
Hubli,75.1667,15.35,22.02,94,75,5.14,IN,Drizzle,1657386969,1657326874,1657373641
Miquelon,-56.3814,47.0975,15.0,89,95,5.78,PM,Clouds,1657386969,1657353577,1657410088
Nichinan,131.3667,31.6,24.18,88,1,1.85,JP,Clear,1657386969,1657397810,1657448544
Nakamura,132.9333,32.9833,23.73,98,52,1.22,JP,Clouds,1657386969,1657397231,1657448370
Son La,103.9,21.3167,21.48,99,100,1.0,VN,Clouds,1657386969,1657405727,1657453812
Te Anau,167.7167,-45.4167,-0.35,90,93,1.88,NZ,Clouds,1657386969,1657398418,1657430486
Alamogordo,-105.9603,32.8995,31.98,33,88,0.0,US,Clouds,1657386883,1657368168,1657419297
Busselton,115.3333,-33.65,13.65,63,89,10.52,AU,Rain,1657386970,1657408956,1657445095
Igarka,86.5833,67.4667,14.49,86,53,4.39,RU,Clouds,1657386970,0,0
Ketchikan,-131.6461,55.3422,14.26,94,100,4.12,US,Rain,1657386970,1657369078,1657430718
Sioux Lookout,-91.917,50.1001,25.04,47,75,3.6,CA,Clouds,1657386971,1657361310,1657419413
Saint-Augustin,-58.6502,51.226,16.9,71,65,8.56,CA,Clouds,1657386971,1657352986,1657411767
Chokurdakh,147.9167,70.6333,7.38,59,100,1.34,RU,Clouds,1657386971,0,0
Nouadhibou,-17.0347,20.931,21.99,83,47,9.26,MR,Clouds,1657386971,1657348382,1657396395
Codrington,141.9667,-38.2667,5.9,92,1,2.64,AU,Clear,1657386972,1657403272,1657437994
East London,27.9116,-33.0153,18.52,63,0,2.57,ZA,Clear,1657386972,1657343457,1657379743
Port Elizabeth,25.5701,-33.918,23.51,31,0,2.57,ZA,Clear,1657386972,1657344149,1657380175
Yar-Sale,70.8333,66.8333,15.43,65,56,2.0,RU,Clouds,1657386972,0,0
Bengkulu,102.2655,-3.8004,24.17,88,8,1.88,ID,Clear,1657386972,1657408720,1657451603
Saskylakh,114.0833,71.9167,10.09,72,96,4.17,RU,Clouds,1657386972,0,0
Thompson,-97.8558,55.7435,19.09,82,100,1.54,CA,Clouds,1657386972,1657360798,1657422777
Ushuaia,-68.3,-54.8,-1.19,80,100,8.75,AR,Snow,1657386955,1657371191,1657398196
College,-147.8028,64.8569,22.34,64,75,2.06,US,Smoke,1657386973,1657366411,1657441141
New Norfolk,147.0587,-42.7826,7.72,81,52,1.19,AU,Clouds,1657386973,1657402846,1657435975
Klaksvík,-6.589,62.2266,10.51,97,100,5.26,FO,Rain,1657386787,1657335185,1657404577
Guerrero Negro,-114.0611,27.9769,23.66,64,52,6.54,MX,Clouds,1657386973,1657370802,1657420551
Baní,-70.3333,18.2833,31.69,59,98,6.24,DO,Clouds,1657386973,1657361479,1657408883
Napier City,176.9167,-39.4833,8.49,92,88,1.79,NZ,Clouds,1657386974,1657395089,1657429399
Esperance,121.9,-33.8667,16.91,51,99,7.62,AU,Clouds,1657386974,1657407411,1657443487
Castro,-50.0119,-24.7911,22.72,42,34,2.79,BR,Clouds,1657386974,1657361089,1657399518
Tessalit,1.0114,20.1986,41.52,6,70,5.5,ML,Clouds,1657386974,1657344135,1657391979
Ilulissat,-51.1,69.2167,9.01,71,20,2.57,GL,Clouds,1657386974,0,0
Saint-Pierre,55.4781,-21.3393,20.51,67,20,8.75,RE,Clouds,1657386974,1657335371,1657374596
Mayo,-76.5119,38.8876,22.75,94,100,5.14,US,Rain,1657386975,1657360125,1657413204
Fort Nelson,-122.7002,58.8053,13.77,94,100,4.63,CA,Rain,1657386975,1657365326,1657430175
Webuye,34.7697,0.6075,17.23,82,99,0.98,KE,Clouds,1657386975,1657338078,1657381829
Cayenne,-52.3333,4.9333,29.02,74,75,2.06,GF,Clouds,1657386975,1657358556,1657403165
Lata,-8.3327,40.1629,32.49,40,0,5.3,PT,Clear,1657386975,1657343522,1657397077
La Ronge,-105.2842,55.1001,23.14,64,75,4.12,CA,Clouds,1657386975,1657362842,1657424298
Tiarei,-149.3333,-17.5333,23.01,75,55,9.43,PF,Clouds,1657386976,1657384104,1657424183
Barrow,-156.7887,71.2906,11.01,76,75,6.69,US,Clouds,1657386976,0,0
Qaanaaq,-69.3632,77.484,5.91,77,99,0.22,GL,Clouds,1657386976,0,0
Lorengau,147.2712,-2.0226,27.58,78,99,4.47,PG,Clouds,1657386976,1657397743,1657440976
Esim,-2.2405,4.8699,25.81,78,98,5.29,GH,Clouds,1657386976,1657346539,1657391136
Lipin Bor,37.9763,60.2622,17.87,74,89,1.24,RU,Clouds,1657386977,1657325875,1657392493
Fidenza,10.0667,44.864,30.38,30,0,4.12,IT,Clear,1657386977,1657338146,1657393621
Yellowknife,-114.3525,62.456,17.29,88,75,5.14,CA,Rain,1657386977,1657360896,1657430597
Camacha,-16.3333,33.0833,20.68,78,20,9.26,PT,Clouds,1657386977,1657346622,1657397818
La Mira,-102.3266,18.035,27.96,70,100,0.56,MX,Clouds,1657386977,1657369187,1657416534
Butaritari,172.7902,3.0707,27.23,80,25,6.13,KI,Rain,1657386978,1657391116,1657435353
Colón,-79.9014,9.3592,26.87,88,99,2.03,PA,Clouds,1657386978,1657364727,1657410229
Geraldton,114.6,-28.7667,18.23,88,100,5.66,AU,Clouds,1657386978,1657408470,1657445933
Saravan,45.6483,39.7196,16.5,69,24,3.95,AM,Clouds,1657386978,1657330643,1657384043
George Town,100.3354,5.4112,29.38,70,20,0.0,MY,Clouds,1657386874,1657408275,1657452975
Caravelas,-39.2481,-17.7125,25.64,59,3,4.09,BR,Clear,1657386978,1657357703,1657397737
Lüderitz,15.1594,-26.6481,14.07,83,38,5.52,NA,Clouds,1657386979,1657345675,1657383646
Kudat,116.8477,6.8837,23.96,94,20,2.06,MY,Clouds,1657386979,1657404164,1657449160
Leshukonskoye,45.7622,64.8989,17.81,56,100,0.44,RU,Clouds,1657386979,1657319796,1657394835
Cape Town,18.4232,-33.9258,15.21,88,66,3.58,ZA,Rain,1657386518,1657345865,1657381890
Nyagan,65.3936,62.1406,21.92,52,69,1.6,RU,Clouds,1657386979,1657317955,1657387252
Ostrovnoy,39.5131,68.0531,9.15,87,87,3.21,RU,Clouds,1657386979,0,0
Cidreira,-50.2056,-30.1811,18.55,80,100,5.89,BR,Clouds,1657386980,1657361814,1657398886
Carballo,-8.691,43.213,35.68,57,0,1.59,ES,Clear,1657386980,1657343007,1657397764
Port Alfred,26.891,-33.5906,18.43,39,0,4.67,ZA,Clear,1657386980,1657343785,1657379905
São João da Barra,-41.0511,-21.6403,26.05,72,14,5.75,BR,Clouds,1657386981,1657358571,1657397734
San Andrés,-81.7006,12.5847,31.01,70,75,6.69,CO,Clouds,1657386981,1657364825,1657410995
Pevek,170.3133,69.7008,0.32,97,100,4.23,RU,Snow,1657386981,0,0
Innisfail,146.0333,-17.5333,18.81,81,100,2.35,AU,Clouds,1657386981,1657399615,1657439698
Ndélé,20.6473,8.4109,26.01,72,91,0.35,CF,Clouds,1657386981,1657340688,1657385999
Coyhaique,-72.0662,-45.5752,2.34,100,100,2.06,CL,Fog,1657386757,1657369609,1657401585
Contamana,-75.0167,-7.3333,31.6,52,48,1.49,PE,Clouds,1657386982,1657365215,1657407395
Seymchan,152.4333,62.8833,8.85,84,7,2.87,RU,Clear,1657386982,1657382932,1657453308
Port Lincoln,135.8667,-34.7333,10.26,78,0,4.96,AU,Clear,1657386982,1657404187,1657440007
Zhigansk,123.3711,66.7697,8.62,85,60,3.72,RU,Clouds,1657386983,1657383345,1657466847
Durban,31.0292,-29.8579,20.57,87,0,2.68,ZA,Clear,1657386804,1657342277,1657379426
Kruisfontein,24.7314,-34.0033,19.85,30,0,5.37,ZA,Clear,1657386983,1657344363,1657380364
Jagatsinghapur,86.1667,20.2667,27.2,82,100,3.37,IN,Clouds,1657386983,1657323684,1657371550
Saint George,-113.5841,37.1041,37.46,13,0,3.09,US,Clear,1657386983,1657369334,1657421791
Tuktoyaktuk,-133.0374,69.4541,10.0,100,100,3.6,CA,Fog,1657386984,0,0
Vyartsilya,30.693,62.1764,18.67,91,81,2.48,RU,Clouds,1657386984,1657326266,1657395599
Souillac,57.5167,-20.5167,20.21,73,40,7.72,MU,Rain,1657386984,1657334789,1657374199
Mayya,130.2811,61.7333,16.62,67,100,2.32,RU,Clouds,1657386984,1657389193,1657457682
Ambilobe,49.05,-13.2,21.3,56,1,3.24,MG,Clear,1657386984,1657336034,1657377018
Tuatapere,167.6833,-46.1333,1.09,84,13,1.44,NZ,Clouds,1657386985,1657398580,1657430340
Labuhan,112.2051,-6.8844,24.48,82,8,3.04,ID,Clear,1657386985,1657406640,1657448913
Kudahuvadhoo,72.8944,2.6708,28.36,75,78,5.48,MV,Clouds,1657386985,1657328723,1657372883
Dingle,122.6711,10.9995,24.85,90,100,2.25,PH,Clouds,1657386985,1657402347,1657448181
Batemans Bay,150.1833,-35.7167,12.83,84,100,6.07,AU,Rain,1657386986,1657400899,1657436422
Faanui,-151.75,-16.4833,25.6,77,81,9.72,PF,Rain,1657386986,1657384571,1657424875
Linxia Chengguanzhen,103.2064,35.6003,19.48,79,90,1.47,CN,Clouds,1657386986,1657403965,1657455907
Itatskiy,89.0369,56.07,17.42,76,98,0.26,RU,Clouds,1657386917,1657402243,1657464431
Mutsu,141.2169,41.2894,19.01,100,75,6.69,JP,Mist,1657386986,1657393840,1657447785
Huarmey,-78.1522,-10.0681,19.64,72,74,4.52,PE,Clouds,1657386986,1657366243,1657407873
Puerto Escondido,-97.0667,15.85,30.46,62,75,2.57,MX,Clouds,1657386987,1657368165,1657415031
Hefei,117.2808,31.8639,29.01,79,0,3.0,CN,Clear,1657386987,1657401154,1657451962
Sarakhs,61.1577,36.5449,31.08,20,0,2.06,IR,Clear,1657386987,1657327472,1657379768
Ulladulla,150.4667,-35.35,10.5,79,100,8.41,AU,Clouds,1657386987,1657400775,1657436410
Aswān,32.907,24.0934,35.16,15,68,4.76,EG,Clouds,1657386988,1657336015,1657384787
Vurğun,45.4716,41.0942,27.84,28,19,1.47,AZ,Clouds,1657386988,1657330427,1657384344
Banda Aceh,95.3222,5.5577,27.27,79,100,6.34,ID,Clouds,1657386988,1657409464,1657454193
Tarnogskiy Gorodok,43.5761,60.4997,18.29,73,93,1.27,RU,Clouds,1657386988,1657324378,1657391302
Severo-Kuril'sk,156.125,50.6789,12.36,90,99,5.22,RU,Clouds,1657386988,1657388029,1657446440
Saiha,92.9667,22.4833,21.81,98,47,1.02,IN,Clouds,1657386989,1657321792,1657370179
Hithadhoo,73.0833,-0.6,28.05,74,20,1.84,MV,Clouds,1657386989,1657329002,1657372514
Neryungri,124.6491,56.6709,13.64,98,100,0.47,RU,Clouds,1657386989,1657393429,1657456150
Prince Rupert,-130.3201,54.3161,13.83,94,100,6.69,CA,Clouds,1657386989,1657369156,1657430003
Alofi,-169.9187,-19.0595,22.94,88,55,4.63,NU,Clouds,1657386989,1657389210,1657428958
Shenzhen,114.0683,22.5455,30.12,90,10,2.03,CN,Clear,1657386792,1657403141,1657451516
Kahramanmaraş Province,37.0,38.0,24.4,47,3,3.4,TR,Clear,1657386794,1657333026,1657385811
Khatanga,102.5,71.9667,7.56,93,100,1.14,RU,Clouds,1657386755,0,0
Bagenalstown,-6.9618,52.7003,23.38,78,100,2.45,IE,Clouds,1657386990,1657340099,1657399842
Mar del Plata,-57.5575,-38.0023,13.86,84,75,4.63,AR,Clouds,1657386990,1657364723,1657399506
Bom Jesus,-44.3586,-9.0744,34.19,19,0,4.38,BR,Clear,1657386990,1657358032,1657399862
Morón,-58.6198,-34.6534,16.09,90,99,2.94,AR,Clouds,1657386990,1657364459,1657400280
Mahébourg,57.7,-20.4081,20.7,73,40,7.72,MU,Clouds,1657386991,1657334733,1657374167
Nanortalik,-45.2371,60.1432,6.64,91,95,2.1,GL,Clouds,1657386991,1657345944,1657412371
Mount Isa,139.5,-20.7333,10.87,46,0,4.63,AU,Clear,1657386991,1657401534,1657440915
Kahului,-156.47,20.8947,24.43,87,40,6.69,US,Rain,1657386991,1657381859,1657429853
Pangnirtung,-65.7125,66.1451,8.0,87,75,9.26,CA,Clouds,1657386991,1657344351,1657423793
Hamilton,-84.5333,39.1834,25.14,87,100,3.09,US,Rain,1657386991,1657361998,1657415181
Los Llanos de Aridane,-17.9182,28.6585,20.86,83,0,7.72,ES,Clear,1657386992,1657347630,1657397571
Limoeiro do Ajuru,-49.3806,-1.8953,29.74,60,61,1.07,BR,Clouds,1657386992,1657358524,1657401780
Pekalongan,109.6753,-6.8886,24.63,78,22,2.14,ID,Clouds,1657386992,1657407247,1657449519
Kropotkin,40.5756,45.4375,26.76,45,0,2.14,RU,Clear,1657386992,1657330690,1657386431
Provideniya,-173.3,64.3833,9.08,94,100,2.92,RU,Clouds,1657386993,1657459720,1657532887
Saint-François,3.9054,46.4154,26.69,41,0,5.14,FR,Clear,1657386993,1657339266,1657395458
Kapaa,-159.319,22.0752,25.18,88,40,5.66,US,Clouds,1657386993,1657382405,1657430675
Falun,15.626,60.6036,15.68,66,61,3.75,SE,Clouds,1657386875,1657331027,1657398071
Çermik,39.4493,38.1361,33.77,18,19,0.55,TR,Clouds,1657386993,1657332414,1657385247
Ribeira Grande,-28.7,38.5167,22.22,68,75,6.17,PT,Clouds,1657386994,1657348710,1657401666
Semīrom,51.5667,31.4167,24.34,31,73,1.85,IR,Clouds,1657386994,1657330565,1657381280
Gardiner,-69.7753,44.2301,26.19,45,0,5.14,US,Clear,1657386994,1657357458,1657412637
Marzuq,46.4667,14.4,27.33,34,100,2.54,YE,Clouds,1657386994,1657333866,1657380427
Dunedin,170.5036,-45.8742,4.89,70,99,1.34,NZ,Clouds,1657386994,1657397847,1657429719
Tefé,-64.7114,-3.3542,32.06,66,40,2.06,BR,Clouds,1657386994,1657362347,1657405316
Chardara,67.9692,41.2547,25.89,28,0,4.57,KZ,Clear,1657386995,1657324994,1657378977
Knysna,23.0471,-34.0363,17.47,63,2,2.14,ZA,Clear,1657386906,1657344772,1657380764
Waipawa,175.5153,-41.4122,6.79,77,100,5.04,NZ,Clouds,1657386995,1657395764,1657429397
Flinders,150.8552,-34.5833,11.21,90,90,2.68,AU,Rain,1657386995,1657400568,1657436430
Bredasdorp,20.0403,-34.5322,13.44,68,19,3.92,ZA,Clouds,1657386996,1657345566,1657381413
Samarai,150.6667,-10.6167,27.09,79,29,4.35,PG,Clouds,1657386996,1657397783,1657439306
Tākestān,49.6959,36.0696,27.07,37,0,5.08,IR,Clear,1657386996,1657330302,1657382441
Nauta,-73.5757,-4.5061,27.28,83,67,0.68,PE,Clouds,1657386996,1657364589,1657407330
Biasca,8.9697,46.3597,30.78,47,81,3.2,CH,Clouds,1657386996,1657338063,1657394230
Kuopio,27.677,62.8924,14.97,100,100,2.06,FI,Rain,1657386893,1657326380,1657396932
Province of Mantua,10.7833,45.1667,29.58,49,48,4.69,IT,Clouds,1657386997,1657337905,1657393517
Yichun,128.9,47.7,13.81,84,54,1.43,CN,Clouds,1657386997,1657395383,1657452155
Hilo,-155.09,19.7297,24.23,89,100,3.09,US,Clouds,1657386830,1657381662,1657429388
Kumul,93.45,42.8,31.65,10,74,8.46,CN,Clouds,1657386997,1657405010,1657459546
La Grande,-118.0877,45.3246,25.57,50,18,1.95,US,Clouds,1657386998,1657368815,1657424471
Dakar,-17.4441,14.6937,30.49,81,65,5.45,SN,Clouds,1657386877,1657349176,1657395797
Margate,1.3862,51.3813,21.84,73,20,0.45,GB,Clouds,1657386998,1657338520,1657397414
Conceição do Araguaia,-49.2647,-8.2578,35.37,26,4,3.22,BR,Clear,1657386998,1657359127,1657401121
Manatí,-66.4921,18.4275,32.19,80,99,7.57,PR,Clouds,1657386998,1657360541,1657407978
Lompoc,-120.4579,34.6391,22.18,85,100,1.79,US,Clouds,1657386998,1657371383,1657423041
São Filipe,-24.4956,14.8961,23.36,82,26,3.05,CV,Clouds,1657386999,1657350847,1657397511
Dandong,124.3947,40.1292,21.86,88,91,1.41,CN,Clouds,1657386999,1657398099,1657451602
Messina,15.5497,38.1933,27.43,59,40,5.14,IT,Clouds,1657386945,1657338142,1657390992
Krasnorechenskiy,135.3532,44.6265,13.64,96,80,0.3,RU,Clouds,1657386999,1657394560,1657449880
Avera,-82.5271,33.194,28.73,68,94,2.64,US,Rain,1657386999,1657362498,1657413718
Kijini,39.3167,-5.85,23.94,75,0,7.31,TZ,Clear,1657387000,1657337626,1657380099
Al Bardīyah,25.0865,31.7561,26.06,74,0,9.52,LY,Clear,1657387000,1657336873,1657387683
Sri Aman,111.4621,1.2376,25.03,94,100,0.0,MY,Clouds,1657387000,1657406017,1657449892
Bilma,12.9164,18.6853,40.02,11,17,2.85,NE,Clouds,1657387000,1657341449,1657388949
Sørland,12.6934,67.667,12.92,78,16,2.35,NO,Clouds,1657387001,0,0
Bursa,29.0833,40.1667,18.02,79,98,1.42,TR,Clouds,1657386506,1657334537,1657388100
Iqaluit,-68.5145,63.7506,3.85,86,40,3.09,CA,Clouds,1657387001,1657348668,1657420822
Yakeshi,120.7333,49.2833,12.26,91,100,3.03,CN,Rain,1657387001,1657396927,1657454531
Kyra,111.9753,49.5776,10.76,84,25,2.07,RU,Clouds,1657387002,1657398949,1657456714
Arrondissement de Clermont,2.4167,49.5,26.51,51,42,7.29,FR,Clouds,1657387002,1657338826,1657396613
Beisfjord,17.5988,68.3751,15.03,72,93,1.68,NO,Clouds,1657387002,0,0
Narsaq,-46.05,60.9167,13.12,76,100,2.37,GL,Clouds,1657387002,1657345638,1657413067
Sibu,111.8167,2.3,25.17,88,40,0.0,MY,Rain,1657387002,1657405827,1657449911
Taywarah,64.4167,33.35,19.32,17,1,3.39,AF,Clear,1657387002,1657327195,1657378481
Marabu,114.0089,4.4148,23.08,94,20,2.06,MY,Clouds,1657387003,1657405092,1657449594
Caruray,119.0128,10.3094,25.82,91,100,6.76,PH,Clouds,1657387003,1657403297,1657448988
Saint-Junien,0.9,45.8833,28.32,29,0,3.28,FR,Clear,1657387003,1657340114,1657396053
Distrikt Paramaribo,-55.1667,5.8667,32.03,79,20,2.57,SR,Rain,1657386766,1657359143,1657403939
Olafsvik,-23.7142,64.8945,10.87,96,100,6.76,IS,Clouds,1657387004,1657336513,1657411470
Soe,124.284,-9.8607,17.52,94,99,1.81,ID,Clouds,1657387004,1657404038,1657445716
Rocha,-54.3333,-34.4833,18.03,82,74,7.7,UY,Clouds,1657387004,1657363405,1657399276
Vila Velha,-40.2925,-20.3297,23.97,92,75,3.6,BR,Clouds,1657386799,1657358241,1657397700
Bāfq,55.4107,31.6128,36.77,9,0,4.29,IR,Clear,1657387004,1657329613,1657380386
The Valley,-63.0578,18.217,30.92,74,20,8.23,AI,Clouds,1657387004,1657359740,1657407130
Bassila,1.6654,9.0081,24.09,91,97,3.25,BJ,Rain,1657387004,1657345183,1657390616
Spasskoye,132.7969,44.6108,17.73,96,85,3.7,RU,Clouds,1657386930,1657395177,1657450490
Lavrentiya,-171.0,65.5833,8.68,87,100,3.28,RU,Clouds,1657386901,1657457501,1657534003
Oranjemund,16.4333,-28.55,15.41,70,1,10.55,NA,Clear,1657387005,1657345609,1657383101
Nikolskoye,30.7861,59.7035,17.94,81,96,2.07,RU,Rain,1657387005,1657327944,1657393876
Broken Hill,141.4333,-31.95,5.29,89,42,3.64,AU,Clouds,1657387005,1657402454,1657439068
Khandyga,135.6,62.6667,12.94,74,98,1.66,RU,Clouds,1657387005,1657387168,1657457154
Torbay,-52.7314,47.6666,19.04,82,75,6.17,CA,Clouds,1657387006,1657352558,1657409355
Shache,77.2406,38.4167,27.83,17,7,2.29,CN,Clear,1657387006,1657409729,1657462608
Mansehra,73.2,34.3333,25.36,70,57,1.2,PK,Rain,1657387006,1657324935,1657376524
Rome,-75.4557,43.2128,24.76,41,0,2.06,US,Clear,1657387200,1657359038,1657413783
Ancud,-73.8203,-41.8697,7.9,88,100,2.42,CL,Clouds,1657387006,1657369295,1657402741
Mujiayingzi,118.7833,42.1167,22.7,42,100,2.22,CN,Rain,1657387006,1657399064,1657453330
Broome,-75.833,42.2506,27.03,47,20,2.57,US,Clouds,1657387006,1657359326,1657413676
Tiksi,128.8694,71.6872,10.0,58,61,5.06,RU,Clouds,1657387007,0,0
Sturgis,-85.4192,41.7992,24.14,46,0,3.09,US,Clear,1657386998,1657361718,1657415887
Lakes Entrance,147.981,-37.8811,8.42,85,34,3.1,AU,Clouds,1657387007,1657401766,1657436612
Saint Paul Harbor,-152.4072,57.79,11.73,94,100,7.2,US,Rain,1657387007,1657372983,1657436779
Maniitsoq,-52.9,65.4167,5.51,90,100,4.83,GL,Clouds,1657387007,1657342734,1657419259
Kabo,18.629,7.6994,27.41,64,100,1.06,CF,Clouds,1657387008,1657341245,1657386411
Hofn,-15.2082,64.2539,10.26,87,100,0.7,IS,Clouds,1657387008,1657335290,1657408609
Kaoma,24.8,-14.7833,17.5,40,3,2.45,ZM,Clear,1657387008,1657342020,1657382674
Tasiilaq,-37.6368,65.6145,11.09,81,100,2.79,GL,Clouds,1657387008,1657338715,1657415951
Fairbanks,-147.7164,64.8378,22.35,64,20,2.06,US,Smoke,1657387008,1657366416,1657441094
Aitape,142.3475,-3.1374,25.41,85,100,2.07,PG,Rain,1657387008,1657399035,1657442048
Harstad,16.5293,68.799,14.66,96,82,2.68,NO,Clouds,1657386683,0,0
Yangi Marg`ilon,71.7189,40.4272,27.4,26,96,1.03,UZ,Clouds,1657387009,1657324251,1657377919
Cherskiy,161.3,68.75,2.36,95,100,6.08,RU,Rain,1657387009,0,0
Leningradskiy,178.4167,69.3833,10.44,87,100,2.79,RU,Rain,1657387009,0,0
Carnarvon,113.6333,-24.8667,21.56,68,7,4.29,AU,Clear,1657387009,1657408219,1657446647
Gomel,30.9754,52.4345,19.99,73,100,2.0,BY,Rain,1657386720,1657331076,1657390653
Kavieng,150.7967,-2.5744,27.47,70,16,7.49,PG,Clouds,1657387010,1657396951,1657440075
Nome,-165.4064,64.5011,15.62,77,0,2.06,US,Clear,1657387010,1657371108,1657444894
Kovdor,30.4758,67.5662,15.18,68,97,1.18,RU,Clouds,1657387010,0,0
Pargas,22.301,60.3067,17.84,74,100,3.45,FI,Clouds,1657387010,1657329614,1657396280
Jackson,-122.8345,42.4165,25.02,60,0,1.79,US,Clear,1657387010,1657370578,1657424987
Punta Alta,-62.0736,-38.8759,13.55,59,0,1.64,AR,Clear,1657387011,1657365951,1657400447
Lebu,-73.65,-37.6167,8.72,86,100,5.25,CL,Rain,1657387011,1657368522,1657403432
Grand Gaube,57.6608,-20.0064,20.77,61,78,3.13,MU,Clouds,1657387011,1657334698,1657374221
Krasnyy Chikoy,108.7512,50.3643,11.29,79,71,1.5,RU,Rain,1657387011,1657399499,1657457711
Kānker,81.4931,20.2719,24.24,93,99,1.33,IN,Rain,1657387012,1657324806,1657372673
Makarov,142.8,48.6333,14.73,95,58,1.68,RU,Clouds,1657387012,1657391803,1657449062
Sitka,-135.33,57.0531,13.94,88,100,3.6,US,Clouds,1657387013,1657369229,1657432334
Salinópolis,-47.3561,-0.6136,28.35,70,8,4.79,BR,Clear,1657387013,1657357911,1657401421
La Rioja,-2.5,42.25,29.88,25,0,4.21,ES,Clear,1657387013,1657341718,1657396082
Saint-Joseph,55.6167,-21.3667,19.21,77,26,7.9,RE,Clouds,1657387013,1657335341,1657374559
Kasongo-Lunda,16.8167,-6.4667,27.01,26,42,1.18,CD,Clouds,1657387014,1657343088,1657385438
Shaoguan,113.5833,24.8,25.74,88,74,0.81,CN,Clouds,1657387014,1657402984,1657451907
Bolobo,16.2333,-2.1667,29.44,31,86,0.1,CD,Clouds,1657387014,1657342802,1657386005
Lagoa,-27.9833,39.05,19.4,76,71,4.73,PT,Clouds,1657387015,1657348444,1657401589
Itigi,34.4833,-5.7,18.51,42,6,2.9,TZ,Clear,1657387015,1657338771,1657381274
Kedrovyy,91.8167,56.1667,12.23,79,87,0.75,RU,Clouds,1657387015,1657401534,1657463805
Svay Rieng,105.7993,11.0879,25.2,82,99,5.39,KH,Rain,1657387015,1657406388,1657452239
Necochea,-58.7368,-38.5473,11.86,83,96,4.41,AR,Clouds,1657386796,1657365095,1657399700
Beidao,105.8933,34.5686,24.46,74,94,2.53,CN,Clouds,1657387016,1657403482,1657455100
Port Blair,92.75,11.6667,28.02,83,100,3.6,IN,Drizzle,1657387016,1657323045,1657369030
Takaka,172.8,-40.85,8.09,93,100,5.63,NZ,Rain,1657387016,1657396314,1657430150
Bichura,107.6022,50.5881,14.14,61,56,1.04,RU,Clouds,1657387016,1657399709,1657458053
Salou,1.1416,41.0766,29.47,53,0,4.63,ES,Clear,1657387016,1657341074,1657394977
Nanchang,115.8833,28.6833,28.7,79,15,2.89,CN,Clouds,1657387017,1657401932,1657451855
Itoman,127.6694,26.1247,29.21,89,75,3.09,JP,Clouds,1657387017,1657399436,1657448692
Bafoulabé,-10.8321,13.8065,35.19,42,47,2.09,ML,Clouds,1657387017,1657347684,1657394115
Shimoda,138.95,34.6667,22.84,93,100,2.7,JP,Clouds,1657387017,1657395530,1657447183
Helong,128.9972,42.5397,16.78,96,83,0.7,CN,Clouds,1657387017,1657396527,1657450964
Kinablangan,126.5503,7.6947,25.34,87,100,1.15,PH,Rain,1657387018,1657401753,1657446912
Vila Franca do Campo,-25.4333,37.7167,21.23,68,46,4.0,PT,Clouds,1657387018,1657348065,1657400743
Ust'-Omchug,149.6333,61.15,15.61,54,5,0.79,RU,Clear,1657387018,1657384963,1657452622
Badulla,81.0557,6.9895,22.29,75,100,2.47,LK,Clouds,1657387018,1657326332,1657371357
Portland,-122.6762,45.5234,22.34,68,75,3.6,US,Clouds,1657387018,1657369872,1657425618
Basco,121.9702,20.4487,28.89,80,62,6.79,PH,Clouds,1657387018,1657401490,1657449375
Peterhead,-1.7981,57.5058,17.22,81,100,1.65,GB,Clouds,1657387019,1657336940,1657400522
Roura,-52.3274,4.7263,28.95,74,75,2.06,GF,Clouds,1657387019,1657358576,1657403143
Aksarka,67.7975,66.5606,17.13,62,54,2.78,RU,Clouds,1657387019,1657310827,1657393226
Hergla,10.509,36.0303,28.92,45,0,10.8,TN,Clear,1657387019,1657339717,1657391837
Sakaraha,44.5333,-22.9,17.9,52,0,5.84,MG,Clear,1657387019,1657338177,1657377044
Tazovsky,78.7,67.4667,8.11,90,97,8.65,RU,Clouds,1657387019,0,0
Poum,164.0167,-20.2333,25.16,84,13,7.59,NC,Clouds,1657387020,1657395595,1657435085
Taoudenni,-3.9836,22.6783,46.07,5,0,6.04,ML,Clear,1657387020,1657345042,1657393469
Vardø,31.1107,70.3705,9.99,81,96,3.6,NO,Clouds,1657387020,0,0
Bubaque,-15.8333,11.2833,27.52,80,74,5.0,GW,Clouds,1657387021,1657349149,1657395050
Buchanan,-10.0467,5.8808,25.0,84,100,5.03,LR,Rain,1657387021,1657348311,1657393111
Saint-Philippe,55.7679,-21.3585,19.77,79,51,8.01,RE,Rain,1657387021,1657335304,1657374524
Poronaysk,143.1167,49.2167,12.33,95,47,1.52,RU,Clouds,1657387021,1657391570,1657449144
Saint Anthony,-93.218,45.0205,27.8,57,0,5.14,US,Clear,1657387021,1657362912,1657418436
Hong Kong,114.1577,22.2855,30.18,85,10,4.92,HK,Clear,1657386955,1657403151,1657451464
Sayyan,44.3244,15.1718,15.58,62,100,4.52,YE,Clouds,1657387022,1657334297,1657381024
Aklavik,-135.0107,68.2191,15.0,88,100,5.14,CA,Haze,1657387023,0,0
Narrabri,149.7833,-30.3167,4.11,89,1,2.04,AU,Clear,1657387023,1657400229,1657437284
Saint-Leu,55.2833,-21.15,20.18,72,45,5.0,RE,Clouds,1657387023,1657335397,1657374664
Brae,-1.353,60.3964,11.69,81,98,4.42,GB,Clouds,1657387023,1657335240,1657402008
Ouégoa,164.4333,-20.35,23.91,88,25,4.31,NC,Clouds,1657387023,1657395508,1657434972
Verkhov'ye,37.2425,52.8119,21.55,68,37,2.62,RU,Clouds,1657387023,1657329445,1657389276
Vao,167.4833,-22.6667,23.63,86,1,4.65,NC,Clear,1657387023,1657395038,1657433978
Vizinga,50.1031,61.0749,19.34,64,93,1.81,RU,Clouds,1657387024,1657322425,1657390123
Sobolevo,31.8996,54.4299,18.41,83,69,1.68,RU,Rain,1657387024,1657330150,1657391136
Envira,-70.2167,-7.3,33.6,38,8,1.47,BR,Clear,1657387024,1657364060,1657406246
Belaya Gora,146.4167,68.5333,6.01,90,47,2.13,RU,Clouds,1657387024,0,0
Balabac,117.0645,7.9868,27.15,81,100,9.49,PH,Rain,1657387025,1657404001,1657449219
Beringovskiy,179.3167,63.05,9.45,91,100,6.12,RU,Clouds,1657387025,1657376320,1657447016
Zabaykal'sk,117.3167,49.6333,14.03,84,100,3.55,RU,Clouds,1657387025,1657397650,1657455448
Vung Tau,107.0843,10.346,26.56,85,100,7.89,VN,Rain,1657387025,1657406156,1657451854
Fairview,-73.999,40.8126,30.3,45,40,4.63,US,Clouds,1657387026,1657359167,1657412955
Marsabit,37.9899,2.3284,19.95,39,44,8.74,KE,Clouds,1657387026,1657337135,1657381227
Isangel,169.2667,-19.55,23.19,84,11,3.3,VU,Clouds,1657387026,1657394259,1657433901
Arawa,155.5367,-6.2132,23.97,88,60,1.93,PG,Clouds,1657387026,1657396173,1657438578
Longyearbyen,15.6401,78.2186,6.91,70,40,10.8,SJ,Clouds,1657387026,0,0
Constitución,-72.4167,-35.3333,10.94,92,100,9.79,CL,Clouds,1657386887,1657367871,1657403492
Kutum,24.6667,14.2,27.14,40,99,5.58,SD,Clouds,1657387027,1657339120,1657385637
Nemuro,145.575,43.3236,13.89,97,99,5.57,JP,Clouds,1657387027,1657392385,1657447148
Rincon,-81.2354,32.296,33.28,63,75,6.69,US,Clouds,1657387027,1657362321,1657413275
Mahabad,45.7222,36.7631,23.48,29,0,1.16,IR,Clear,1657387027,1657331142,1657383508
Port-Gentil,8.7815,-0.7193,23.98,78,40,4.63,GA,Clouds,1657387028,1657344447,1657387936
São José da Coroa Grande,-35.1478,-8.8978,25.89,76,11,4.92,BR,Clouds,1657387028,1657355803,1657397668
Piracuruca,-41.7092,-3.9281,33.56,31,80,3.02,BR,Clouds,1657387028,1657356883,1657399738
Micheweni,39.8333,-4.9667,24.07,75,21,6.59,TZ,Clouds,1657387028,1657337414,1657380063
Phalombe,35.6507,-15.8064,16.58,72,69,1.93,MW,Clouds,1657387028,1657339523,1657379962
Drayton Valley,-114.9854,53.2168,17.95,66,13,0.8,CA,Clouds,1657387029,1657365868,1657425930
Hatillo,-66.8254,18.4863,33.25,78,99,5.81,PR,Clouds,1657387029,1657360614,1657408064
Nantucket,-70.0995,41.2835,26.08,73,0,7.2,US,Clear,1657387029,1657358140,1657412110
Jiutai,125.8328,44.1525,18.19,64,31,3.11,CN,Clouds,1657387029,1657396949,1657452061
Sinnamary,-52.95,5.3833,26.93,85,92,5.94,GF,Clouds,1657387029,1657358659,1657403358
Datong,113.2914,40.0936,18.59,66,86,1.77,CN,Clouds,1657387029,1657400771,1657454259
Grindavik,-22.4338,63.8424,13.97,94,100,9.26,IS,Clouds,1657387030,1657337491,1657409877
Evensk,159.2333,61.95,9.28,97,89,1.37,RU,Clouds,1657387030,1657382071,1657450906
Vila,-8.1588,42.0304,32.06,26,0,1.52,PT,Clear,1657387030,1657343120,1657397395
Rabo de Peixe,-25.5833,37.8,20.73,68,75,6.17,PT,Clouds,1657387030,1657348087,1657400794
Fortuna,-124.1573,40.5982,18.29,84,100,0.89,US,Clouds,1657387031,1657371251,1657424949
Srednekolymsk,153.6833,67.45,7.45,75,49,1.93,RU,Clouds,1657387031,0,0
Zharkovskiy,32.2697,55.849,18.32,81,85,2.3,RU,Clouds,1657387031,1657329497,1657391611
Ust'-Ilimsk,102.6619,58.0006,11.25,90,17,0.68,RU,Clouds,1657386422,1657398087,1657462046
Shihezi,86.0333,44.3,23.31,43,100,1.41,CN,Clouds,1657387031,1657406474,1657461642
Marystown,-55.1483,47.1666,16.26,65,66,5.72,CA,Clouds,1657387031,1657353264,1657409809
Baishishan,127.5667,43.5833,16.72,92,6,1.05,CN,Clear,1657387032,1657396655,1657451523
Japura,102.35,-0.3167,23.42,96,97,0.34,ID,Clouds,1657387032,1657408357,1657451926
Piaçabuçu,-36.4344,-10.4056,24.5,86,64,6.98,BR,Clouds,1657387032,1657356264,1657397825
Minot,-101.2963,48.2325,28.12,54,0,6.17,US,Clear,1657387032,1657364075,1657421151
Balboa,-77.2168,2.0396,25.03,48,94,1.87,CO,Clouds,1657387032,1657364817,1657408850
Dicabisagan,122.4157,17.0818,26.2,91,95,1.88,PH,Clouds,1657387032,1657401762,1657448889
Sapernoye,29.9505,60.7167,18.7,85,94,3.01,RU,Clouds,1657386922,1657327510,1657394711
Bonavista,-53.1147,48.6499,15.0,68,46,7.45,CA,Clouds,1657387033,1657352394,1657409703
Mayumba,10.6554,-3.432,22.98,76,95,3.75,GA,Clouds,1657387033,1657344265,1657387218
Bitkine,18.2138,11.9801,30.15,46,96,2.74,TD,Clouds,1657387033,1657340904,1657386951
Ţahţā,31.5021,26.7693,36.04,15,52,6.8,EG,Clouds,1657387033,1657336015,1657385462
Rawson,-65.1023,-43.3002,15.03,29,32,6.87,AR,Clouds,1657387034,1657367475,1657400376
Bambous Virieux,57.7575,-20.3428,20.68,73,40,7.72,MU,Clouds,1657387034,1657334712,1657374161
Ayagoz,80.4392,47.9714,17.34,65,86,2.95,KZ,Clouds,1657387034,1657320500,1657377484
Bathsheba,-59.5167,13.2167,31.34,83,40,10.29,BB,Clouds,1657387034,1657359433,1657405737
Stromness,-3.296,58.965,12.98,88,100,3.58,GB,Rain,1657387035,1657336553,1657401628
Telhāra,76.8389,21.0269,25.94,83,100,7.66,IN,Rain,1657387035,1657325835,1657373877
Hornepayne,-84.7705,49.2138,26.58,32,40,3.64,CA,Clouds,1657387035,1657359843,1657417450
Kaitangata,169.8464,-46.2817,0.97,86,60,1.97,NZ,Clouds,1657387035,1657398093,1657429788
Isiro,27.616,2.7739,21.96,81,97,1.12,CD,Clouds,1657387035,1657339581,1657383761
Furth im Wald,12.84,49.3097,17.05,90,100,1.74,DE,Clouds,1657387036,1657336376,1657394060
Aquiraz,-38.3911,-3.9014,29.54,61,61,6.21,BR,Clouds,1657387036,1657356084,1657398945
Alice Springs,133.8833,-23.7,0.75,86,0,0.0,AU,Clear,1657387036,1657403222,1657441924
Khasan,130.6434,42.4308,17.98,98,100,1.8,RU,Clouds,1657387036,1657396154,1657450547
Alta Floresta,-56.0861,-9.8756,34.9,34,20,4.63,BR,Clouds,1657387036,1657360927,1657402596
Shelburne,-80.2041,44.0787,21.61,34,8,4.17,CA,Clear,1657387037,1657359995,1657415106
Mount Gambier,140.7667,-37.8333,2.95,93,100,3.09,AU,Clouds,1657387037,1657403489,1657438352
Kuala Pilah,102.2487,2.7389,24.44,83,99,1.19,MY,Clouds,1657387037,1657408081,1657452251
Kakonko,30.9642,-3.2828,21.93,39,34,1.46,TZ,Clouds,1657387038,1657339376,1657382358
Pochutla,-96.4661,15.7432,33.23,56,0,2.18,MX,Clear,1657387038,1657368032,1657414875
Khunti,85.2833,23.0833,24.06,82,7,3.36,IN,Clear,1657387038,1657323564,1657372095
Uvira,29.1458,-3.4067,23.74,67,46,2.45,CD,Clouds,1657387038,1657339825,1657382783
Artesia,-118.0831,33.8658,30.48,71,0,2.57,US,Haze,1657387038,1657370932,1657422352
Pisco,-76.2167,-13.7,18.03,77,16,4.63,PE,Haze,1657387038,1657366150,1657407036
Hyderabad,78.4744,17.3753,22.73,94,100,6.17,IN,Clouds,1657387039,1657325858,1657373069
Talcahuano,-73.1167,-36.7167,10.82,87,100,7.72,CL,Clouds,1657386979,1657368251,1657403447
Itacaré,-38.9967,-14.2775,23.47,84,83,6.71,BR,Clouds,1657386960,1657357278,1657398042
Clyde River,-68.5914,70.4692,6.13,81,0,3.6,CA,Clear,1657387039,0,0
Sfântu Gheorghe,25.7833,45.8667,19.34,74,100,1.9,RO,Clouds,1657387039,1657334142,1657390080
San Jerónimo,-75.2829,-11.9472,14.01,49,70,0.97,PE,Clouds,1657387040,1657365745,1657406993
Kyshtovka,76.6271,56.555,19.19,68,99,0.58,RU,Clouds,1657387040,1657405015,1657467616
Lumajang,113.2248,-8.1335,22.29,91,83,0.6,ID,Clouds,1657387040,1657406519,1657448543
Porto-Novo,2.6036,6.4965,25.9,95,100,3.04,BJ,Rain,1657387040,1657345213,1657390136
Progreso,-89.6667,21.2833,32.28,59,12,5.05,MX,Clouds,1657387040,1657365777,1657413866
Tandil,-59.1332,-37.3217,13.16,96,100,3.56,AR,Clouds,1657387040,1657364992,1657399994
San Fernando del Valle de Catamarca,-65.7852,-28.4696,33.1,9,0,4.79,AR,Clear,1657386823,1657365329,1657402850
Bataiporã,-53.2711,-22.2953,31.25,25,0,4.34,BR,Clear,1657387041,1657361579,1657400593
Mānsa,75.3833,29.9833,32.51,57,98,6.87,IN,Clouds,1657387041,1657325049,1657375362
Henties Bay,14.2845,-22.116,14.19,89,0,4.25,NA,Clear,1657387041,1657345346,1657384396
Nhulunbuy,136.7667,-12.2333,22.34,68,100,4.63,AU,Clouds,1657387041,1657401283,1657442478
Kongolo,27.0,-5.3833,27.03,30,27,1.43,CD,Clouds,1657387041,1657340536,1657383102
Huai Thalaeng,102.6475,14.997,24.14,88,100,2.63,TH,Rain,1657387041,1657406734,1657453407
Killybegs,-8.45,54.6333,14.84,89,97,2.88,IE,Clouds,1657387042,1657339764,1657400891
Mbaïki,17.9892,3.8678,23.56,84,94,0.91,CF,Rain,1657387042,1657341783,1657386180
Ustyuzhna,36.4321,58.8394,19.47,65,100,1.61,RU,Clouds,1657387042,1657327077,1657392033
Russell,-85.1999,32.3502,31.6,46,80,2.6,US,Clouds,1657387042,1657363265,1657414234
Pabbi,71.7989,34.0106,32.38,58,68,2.56,PK,Rain,1657387043,1657325321,1657376811
Touros,-35.4608,-5.1989,27.64,65,27,8.03,BR,Clouds,1657387043,1657355509,1657398113
Tvøroyri,-6.8111,61.5556,10.38,98,100,4.72,FO,Rain,1657387043,1657335757,1657404111
Kyren,102.1408,51.6828,12.82,80,74,0.52,RU,Clouds,1657387043,1657400688,1657459696
Deputatsky,139.9,69.3,2.25,91,58,1.13,RU,Clouds,1657387043,0,0
Petropavlovsk-Kamchatskiy,158.6483,53.0452,19.88,88,98,3.43,RU,Clouds,1657386929,1657386670,1657446587
Acaraú,-40.12,-2.8856,29.94,55,86,6.76,BR,Clouds,1657387044,1657356399,1657399460
Aykhal,111.5,66.0,9.83,83,22,3.32,RU,Clouds,1657387044,1657388709,1657467182
Price,-110.8107,39.5994,31.73,12,0,2.06,US,Clear,1657387044,1657368232,1657421562
Kazachinskoye,93.2761,57.6953,16.15,79,72,1.28,RU,Clouds,1657387044,1657400491,1657464148
Ihosy,46.1167,-22.4,13.01,81,0,4.05,MG,Clear,1657387044,1657337739,1657376721
Chengzhong,113.55,30.95,28.8,78,44,4.62,CN,Clouds,1657387045,1657402180,1657452727
Sakaiminato,133.2333,35.55,26.99,89,75,4.12,JP,Clouds,1657387045,1657396764,1657448694
Makakilo City,-158.0858,21.3469,24.18,78,100,4.12,US,Clouds,1657387045,1657382194,1657430293
Taungdwingyi,95.55,20.0167,24.99,91,100,4.16,MM,Clouds,1657387046,1657321461,1657369270
Bonfim,-59.95,3.0833,29.63,66,54,2.29,BR,Clouds,1657387046,1657360569,1657404809
Soma,27.6094,39.1855,22.66,75,52,3.77,TR,Clouds,1657387046,1657335071,1657388274
Harper,-7.7169,4.375,25.64,72,89,4.67,LR,Clouds,1657387046,1657347903,1657392401
Santa Cruz de la Sierra,-63.1667,-17.8,30.7,51,75,12.86,BO,Clouds,1657387046,1657363453,1657403469
Chateaubelair,-61.25,13.2833,29.29,74,40,6.69,VC,Clouds,1657387047,1657359842,1657406160
Magsalangi,123.5666,12.1828,25.94,90,100,3.33,PH,Clouds,1657387047,1657402010,1657448089
Guánica,-66.908,17.9716,33.32,76,99,8.36,PR,Clouds,1657387047,1657360692,1657408026
Breves,-50.4803,-1.6822,32.27,47,55,2.83,BR,Clouds,1657387047,1657358766,1657402065
Buala,159.5921,-8.145,25.97,81,91,3.22,SB,Clouds,1657387047,1657395392,1657437412
Pacific Grove,-121.9166,36.6177,19.34,88,75,4.47,US,Clouds,1657387048,1657371416,1657423709
Burnie,145.9167,-41.0667,4.97,73,6,3.79,AU,Clear,1657387048,1657402803,1657436566
Hauterive,3.4459,46.0901,26.42,41,13,3.78,FR,Clouds,1657387048,1657339454,1657395491
Taltal,-70.4833,-25.4,16.3,71,46,2.0,CL,Clouds,1657387048,1657366075,1657404359
Solnechnyy,136.6319,50.7214,19.68,93,66,2.18,RU,Clouds,1657387048,1657392698,1657451128
Nuuk,-51.7216,64.1835,5.34,87,100,4.12,GL,Clouds,1657387048,1657344152,1657417276
Tshikapa,20.8,-6.4167,26.99,26,9,0.98,CD,Clear,1657387049,1657342127,1657384487
Limanowa,20.422,49.7059,20.82,54,100,3.26,PL,Clouds,1657387049,1657334444,1657392351
Tobol,62.5794,52.6844,20.24,64,82,3.56,KZ,Clouds,1657387049,1657323403,1657383155
Mathathane,28.7495,-22.2687,16.96,44,0,3.72,BW,Clear,1657387049,1657341892,1657380906
Saldanha,17.9442,-33.0117,14.08,88,59,7.83,ZA,Rain,1657387049,1657345849,1657382136
Alyangula,136.4192,-13.8483,20.1,68,24,5.76,AU,Clouds,1657387049,1657401533,1657442395
Pemangkat,108.9667,1.1667,26.44,81,99,3.53,ID,Clouds,1657387050,1657406623,1657450484
Beloha,45.05,-25.1667,18.97,63,0,5.62,MG,Clear,1657387050,1657338321,1657376652
Mēga,38.3,4.05,15.47,53,78,4.97,ET,Clouds,1657387050,1657336890,1657381324
Camargo,-105.1667,27.6667,31.09,31,33,1.83,MX,Clouds,1657387050,1657368708,1657418376
Chodavaram,82.95,17.8333,26.91,88,65,2.82,IN,Clouds,1657387050,1657324733,1657372046
Norman Wells,-126.8329,65.282,20.02,64,75,1.54,CA,Smoke,1657387050,1657360742,1657436743
Praia,-23.5087,14.9215,27.3,61,75,6.17,CV,Clouds,1657386926,1657350608,1657397277
Charters Towers,146.2667,-20.1,11.54,68,14,3.22,AU,Clouds,1657387051,1657399840,1657439361
Rājāpur,81.15,25.3833,35.2,43,73,5.1,IN,Clouds,1657387051,1657324272,1657373371
Kurskaya,44.45,44.05,28.0,28,44,6.57,RU,Clouds,1657387051,1657330068,1657385192
Portlethen,-2.1307,57.0547,19.87,69,100,1.54,GB,Clouds,1657387051,1657337232,1657400390
Gamba,10.0,-2.65,22.66,74,97,3.67,GA,Clouds,1657387051,1657344345,1657387453
Majene,118.9707,-3.5403,25.21,87,96,2.33,ID,Clouds,1657387052,1657404685,1657447619
Itaberaí,-49.8103,-16.0203,30.24,20,42,2.99,BR,Clouds,1657387052,1657360057,1657400454
Dubbo,148.6167,-32.25,-0.93,100,4,0.0,AU,Clear,1657387052,1657400772,1657437301
Yartsevo,32.6964,55.0667,17.65,86,91,0.89,RU,Rain,1657387052,1657329713,1657391190
Ust-Tsilma,52.1498,65.441,18.02,56,52,1.75,RU,Clouds,1657387052,1657317417,1657394148
Svetlaya,138.3297,46.5389,16.64,96,95,1.57,RU,Clouds,1657387052,1657393405,1657449606
Banagher,-7.9867,53.1886,23.16,73,90,1.74,IE,Clouds,1657387052,1657340179,1657400254
Qaqortoq,-46.0333,60.7167,7.67,86,99,2.09,GL,Clouds,1657387053,1657345768,1657412929
Akureyri,-18.0878,65.6835,17.96,52,75,5.14,IS,Clouds,1657387053,1657333882,1657411400
Fukuechō,128.8419,32.6881,25.62,89,5,4.3,JP,Clear,1657387053,1657398257,1657449308
Preobrazheniye,133.9064,42.9019,17.57,90,100,2.79,RU,Rain,1657387053,1657395274,1657449860
Pierre,-100.351,44.3683,30.48,58,0,8.75,US,Clear,1657387053,1657364770,1657420003
Tubualá,-79.0333,9.5167,28.73,77,74,3.04,PA,Clouds,1657387054,1657364502,1657410036
Paamiut,-49.6678,61.994,4.25,91,100,3.74,GL,Clouds,1657387054,1657345724,1657414718
Palu,119.8707,-0.8917,24.4,98,100,1.7,ID,Clouds,1657387054,1657404209,1657447664
Bragadiru,25.9775,44.3711,26.04,50,0,2.57,RO,Clear,1657387054,1657334434,1657389694
Masuguru,38.4167,-11.3667,25.26,40,58,3.15,TZ,Clouds,1657387054,1657338398,1657379760
Christchurch,172.6333,-43.5333,4.95,79,75,3.6,NZ,Clouds,1657387055,1657396855,1657429689
Saurimo,20.3916,-9.6608,21.33,27,40,1.13,AO,Clouds,1657387055,1657342550,1657384260
Praia da Vitória,-27.0667,38.7333,23.2,73,40,4.24,PT,Clouds,1657387055,1657348280,1657401312
Āsosa,34.5333,10.0667,15.9,97,100,0.62,ET,Rain,1657387055,1657337185,1657382836
Middelburg,29.4648,-25.7751,12.95,51,0,3.21,ZA,Clear,1657387055,1657342135,1657380319
Ōfunato,141.7167,39.0717,20.13,93,61,3.54,JP,Rain,1657387056,1657394132,1657447253
Najrān,44.1277,17.4924,28.49,24,100,1.86,SA,Clouds,1657386779,1657334090,1657381325
Yenagoa,6.2642,4.9247,23.51,92,100,3.07,NG,Rain,1657387056,1657344492,1657389100
Tingi,35.0333,-11.3,14.1,61,52,1.57,TZ,Clouds,1657387056,1657339203,1657380579
San Quintín,-115.95,30.4833,23.01,66,20,5.92,MX,Clouds,1657387056,1657370915,1657421346
Baisha,110.9311,26.5222,25.32,86,14,2.08,CN,Clouds,1657387056,1657403404,1657452760
Raudeberg,5.1352,61.9875,10.37,84,100,7.06,NO,Clouds,1657387057,1657332558,1657401576
Ixtapa,-105.2,20.7,30.68,62,20,2.06,MX,Clouds,1657387057,1657369574,1657417526
Berlevåg,29.0864,70.8578,13.0,94,100,2.06,NO,Rain,1657387057,0,0
Ţalkhā,31.3779,31.0539,28.19,48,0,4.52,EG,Clear,1657387057,1657335463,1657386073
Bay Roberts,-53.2648,47.5999,19.46,70,70,3.13,CA,Clouds,1657387057,1657352703,1657409466
Romny,33.4747,50.751,20.13,82,63,1.79,UA,Rain,1657386759,1657331006,1657389524
Tarko-Sale,77.785,64.9225,16.79,64,3,6.4,RU,Clear,1657387058,1657312060,1657387198
La Santisima Trinidad,-64.9,-14.8333,32.99,49,20,4.12,BO,Clouds,1657387058,1657363553,1657404201
Kununurra,128.7333,-15.7667,17.99,36,60,3.6,AU,Clouds,1657387058,1657403579,1657444039
Damaturu,11.9608,11.747,33.83,35,84,4.75,NG,Clouds,1657387058,1657342429,1657388428
Khromtau,58.4347,50.2503,20.87,55,75,2.71,KZ,Clouds,1657387058,1657325159,1657383388
Auki,160.7034,-8.7676,24.25,87,70,1.5,SB,Clouds,1657387058,1657395187,1657437083
Port Augusta,137.7667,-32.5,4.78,82,0,1.05,AU,Clear,1657387058,1657403410,1657439872
Mitsamiouli,43.2844,-11.3847,24.29,71,5,5.73,KM,Clear,1657387059,1657337231,1657378589
Odesa,30.7326,46.4775,23.62,65,100,9.91,UA,Rain,1657387059,1657332809,1657389037
Mosquera,-74.2302,4.7059,16.05,63,75,7.72,CO,Clouds,1657386798,1657363835,1657408398
Santa Isabel Rio Negro,-65.0192,-0.4139,23.67,98,99,1.2,BR,Clouds,1657387059,1657362131,1657405680
Tongling,117.7833,30.95,27.49,86,98,2.03,CN,Clouds,1657387059,1657401164,1657451711
Jiayuguan City,98.3,39.8167,25.81,16,0,2.11,CN,Clear,1657387059,1657404422,1657457805
Tiznit Province,-9.5,29.5833,37.95,13,65,3.91,MA,Clouds,1657387060,1657345483,1657395676
Atbasar,68.3333,51.8,18.43,68,63,3.79,KZ,Clouds,1657387060,1657322310,1657381486
Buin,-70.75,-33.7333,11.35,73,99,1.82,CL,Rain,1657387060,1657367235,1657403327
Ishigaki,124.1572,24.3448,27.07,94,20,3.6,JP,Clouds,1657387060,1657400502,1657449313
Marabba,32.1833,12.35,30.26,51,100,4.81,SD,Clouds,1657387060,1657337512,1657383637
Imbituba,-48.6703,-28.24,22.7,84,17,3.58,BR,Clouds,1657386880,1657361193,1657398770
Nicoya,-85.452,10.1483,29.05,73,80,1.85,CR,Rain,1657387061,1657365978,1657411642
Port Keats,129.55,-14.25,18.09,39,15,6.09,AU,Clouds,1657387061,1657403224,1657444002
Ankazoabo,44.5167,-22.2833,18.52,53,0,5.12,MG,Clear,1657387061,1657338110,1657377119
Moree,149.85,-29.4667,4.94,83,4,3.18,AU,Clear,1657387061,1657400101,1657437380
Swan Hill,143.5544,-35.3378,4.86,93,1,2.9,AU,Clear,1657387061,1657402432,1657438071
Outlook,-107.0513,51.5001,24.02,55,19,2.75,CA,Clouds,1657387061,1657364526,1657423463
Cairns,145.7667,-16.9167,19.97,83,84,4.63,AU,Clouds,1657387062,1657399613,1657439828
Le Vauclin,-60.8388,14.5452,31.03,70,100,8.23,MQ,Clouds,1657387062,1657359609,1657406196
Inverell,151.1167,-29.7833,2.31,87,1,1.34,AU,Clear,1657387062,1657399839,1657437034
Kirakira,161.9205,-10.4544,25.73,84,13,3.09,SB,Clouds,1657387062,1657395065,1657436621
Puerto Colombia,-74.9547,10.9878,31.05,71,65,4.68,CO,Clouds,1657387062,1657363372,1657409209
Gizo Government Station,156.8419,-8.103,26.87,71,54,2.36,SB,Clouds,1657387063,1657396048,1657438077
Hohhot,111.6522,40.8106,15.16,67,0,2.0,CN,Clear,1657387063,1657401031,1657454787
Truckee,-120.1833,39.328,25.05,37,0,5.14,US,Clear,1657387063,1657370531,1657423761
Abu Samrah,37.1841,35.3029,29.18,34,0,7.23,SY,Clear,1657387063,1657333430,1657385319
Corralillo,-80.5856,22.9819,30.6,62,6,4.41,CU,Clear,1657387063,1657363395,1657411888
Oktyabr'skiy,53.471,54.4815,20.9,71,14,1.33,RU,Clouds,1657387058,1657324949,1657385981
Erenhot,111.9767,43.6475,25.4,25,58,2.38,CN,Clouds,1657387064,1657400385,1657455277
Chapaevsk,49.7112,52.9813,19.25,80,95,1.78,RU,Clouds,1657387064,1657326392,1657386343
Tomatlán,-105.25,19.9333,33.15,49,62,1.06,MX,Clouds,1657387064,1657369674,1657417450
Amapá,-52.0,1.0,27.51,76,45,2.06,BR,Clouds,1657387064,1657358867,1657402695
Beşikdüzü,39.2284,41.052,24.94,87,2,2.93,TR,Clear,1657387064,1657331934,1657385834
Cockburn Town,-71.1419,21.4612,27.84,79,100,8.44,TC,Clouds,1657387064,1657361309,1657409441
Angoche,39.9086,-16.2325,22.26,73,6,3.16,MZ,Clear,1657387065,1657338547,1657378894
Meulaboh,96.1285,4.1363,25.43,87,99,1.59,ID,Clouds,1657387065,1657409411,1657453858
Lisala,21.5167,2.15,24.43,74,100,0.52,CD,Clouds,1657387065,1657341107,1657385163
Palmer,-72.3287,42.1584,27.58,35,20,2.57,US,Clouds,1657387065,1657358503,1657412817
Ahipara,173.1667,-35.1667,14.17,93,53,3.07,NZ,Clouds,1657387065,1657395301,1657430987
Timizart,4.2667,36.8,27.61,42,0,3.14,DZ,Clear,1657387065,1657341089,1657393462
Khanpur,70.6567,28.6453,37.69,40,17,6.66,PK,Rain,1657387066,1657326367,1657376314
Comodoro Rivadavia,-67.5,-45.8667,11.92,47,0,7.2,AR,Clear,1657386855,1657368576,1657400426
Pogranichnyy,131.3769,44.4064,18.02,99,94,1.67,RU,Clouds,1657387066,1657395563,1657450786
Chern',36.9145,53.4523,21.16,79,75,1.9,RU,Clouds,1657387066,1657329302,1657389576
Brandýs nad Labem-Stará Boleslav,14.6633,50.1871,18.27,88,0,3.09,CZ,Clear,1657387067,1657335689,1657393871
Cartagena,-75.5144,10.3997,32.79,62,40,6.69,CO,Clouds,1657386772,1657363567,1657409283
Mayna,47.6231,54.1135,17.97,87,61,2.68,RU,Rain,1657387067,1657326491,1657387246
Hīt,42.8251,33.6416,37.2,10,0,5.84,IQ,Clear,1657387067,1657332334,1657383707
Abu Dhabi,54.3667,24.4667,34.06,66,0,2.57,AE,Clear,1657386868,1657330817,1657379684
Tarakan,117.6333,3.3,26.77,80,100,3.21,ID,Clouds,1657387067,1657404332,1657448614
Magnitogorsk,59.0472,53.4186,18.46,77,75,4.0,RU,Clouds,1657386931,1657323998,1657384255
Phetchaburi,99.5833,12.9667,24.12,85,100,5.71,TH,Rain,1657387068,1657407685,1657453927
Nara,135.8049,34.6851,25.28,85,58,0.86,JP,Clouds,1657387001,1657396283,1657447941
Saint-Louis,-15.0,16.3333,36.0,36,100,5.63,SN,Clouds,1657387068,1657348412,1657395388
Waitati,170.5667,-45.75,4.89,70,99,1.96,NZ,Clouds,1657387068,1657397805,1657429731
Fare,-151.0167,-16.7,25.17,77,43,8.06,PF,Rain,1657387068,1657384418,1657424676
Khor,134.9464,47.8861,19.27,97,93,0.96,RU,Clouds,1657387068,1657393884,1657450751
Gazli,63.45,40.1333,30.74,15,0,3.45,UZ,Clear,1657387069,1657326292,1657379848
Carandaí,-43.8064,-20.9536,20.02,40,1,4.15,BR,Clear,1657387069,1657359155,1657398473
Xingyi,102.817,24.1877,16.41,95,27,0.84,CN,Clouds,1657387069,1657405644,1657454415
Jalu,21.5482,29.0331,34.04,29,0,9.59,LY,Clear,1657387070,1657338104,1657388151
Havelock,-76.9013,34.8791,28.99,86,95,3.99,US,Clouds,1657387070,1657360888,1657412627
Kidal,1.4078,18.4411,40.93,6,75,2.06,ML,Clouds,1657387070,1657344239,1657391684
Maroantsetra,49.7333,-15.4333,20.49,84,26,3.93,MG,Rain,1657387070,1657336104,1657376621
Winneba,-0.6231,5.3511,25.49,81,99,5.29,GH,Clouds,1657387070,1657346102,1657390796
Capâo Bonito,-48.3494,-24.0058,24.61,39,6,2.61,BR,Clear,1657387070,1657360597,1657399212
Kuragino,92.6725,53.8975,14.23,79,2,2.56,RU,Clear,1657387070,1657402217,1657462712
Tigil',158.6667,57.8,15.03,95,19,3.01,RU,Clouds,1657387071,1657384732,1657448517
Bandarbeyla,50.8122,9.4942,26.73,62,64,13.07,SO,Clouds,1657387071,1657333336,1657378870
Idlib,36.6339,35.9306,25.56,53,0,6.98,SY,Clear,1657386945,1657333461,1657385552
Nybro,15.9071,56.7446,19.58,38,38,4.86,SE,Clouds,1657386775,1657333040,1657395923
Itaberaba,-40.3069,-12.5275,24.34,64,95,3.19,BR,Clouds,1657386888,1657357411,1657398538
Taseyevo,94.8978,57.2169,16.68,68,98,0.6,RU,Clouds,1657387071,1657400328,1657463532
